[
    {
        "id": 129777,
        "name": "Artigas",
        "state_id": 3205,
        "state_code": "AR",
        "state_name": "Artigas",
        "country_id": 235,
        "country_code": "UY",
        "country_name": "Uruguay",
        "latitude": "-30.40000000",
        "longitude": "-56.46667000",
        "wikiDataId": "Q712567"
    },
    {
        "id": 129779,
        "name": "Baltasar Brum",
        "state_id": 3205,
        "state_code": "AR",
        "state_name": "Artigas",
        "country_id": 235,
        "country_code": "UY",
        "country_name": "Uruguay",
        "latitude": "-30.71905000",
        "longitude": "-57.32596000",
        "wikiDataId": "Q805555"
    },
    {
        "id": 129782,
        "name": "Bella Unión",
        "state_id": 3205,
        "state_code": "AR",
        "state_name": "Artigas",
        "country_id": 235,
        "country_code": "UY",
        "country_name": "Uruguay",
        "latitude": "-30.25966000",
        "longitude": "-57.59919000",
        "wikiDataId": "Q815782"
    },
    {
        "id": 129820,
        "name": "Las Piedras",
        "state_id": 3205,
        "state_code": "AR",
        "state_name": "Artigas",
        "country_id": 235,
        "country_code": "UY",
        "country_name": "Uruguay",
        "latitude": "-30.26204000",
        "longitude": "-57.58174000",
        "wikiDataId": "Q984757"
    },
    {
        "id": 129881,
        "name": "Tomás Gomensoro",
        "state_id": 3205,
        "state_code": "AR",
        "state_name": "Artigas",
        "country_id": 235,
        "country_code": "UY",
        "country_name": "Uruguay",
        "latitude": "-30.42870000",
        "longitude": "-57.43609000",
        "wikiDataId": "Q1313974"
    },
    {
        "id": 129774,
        "name": "Aguas Corrientes",
        "state_id": 3213,
        "state_code": "CA",
        "state_name": "Canelones",
        "country_id": 235,
        "country_code": "UY",
        "country_name": "Uruguay",
        "latitude": "-34.52194000",
        "longitude": "-56.39361000",
        "wikiDataId": "Q397975"
    },
    {
        "id": 129778,
        "name": "Atlántida",
        "state_id": 3213,
        "state_code": "CA",
        "state_name": "Canelones",
        "country_id": 235,
        "country_code": "UY",
        "country_name": "Uruguay",
        "latitude": "-34.77190000",
        "longitude": "-55.75840000",
        "wikiDataId": "Q1549798"
    },
    {
        "id": 129780,
        "name": "Barra de Carrasco",
        "state_id": 3213,
        "state_code": "CA",
        "state_name": "Canelones",
        "country_id": 235,
        "country_code": "UY",
        "country_name": "Uruguay",
        "latitude": "-34.87722000",
        "longitude": "-56.02972000",
        "wikiDataId": "Q808781"
    },
    {
        "id": 129781,
        "name": "Barros Blancos",
        "state_id": 3213,
        "state_code": "CA",
        "state_name": "Canelones",
        "country_id": 235,
        "country_code": "UY",
        "country_name": "Uruguay",
        "latitude": "-34.75240000",
        "longitude": "-56.00259000",
        "wikiDataId": "Q808781"
    },
    {
        "id": 129785,
        "name": "Canelones",
        "state_id": 3213,
        "state_code": "CA",
        "state_name": "Canelones",
        "country_id": 235,
        "country_code": "UY",
        "country_name": "Uruguay",
        "latitude": "-34.52278000",
        "longitude": "-56.27778000",
        "wikiDataId": "Q841342"
    },
    {
        "id": 129794,
        "name": "Colonia Nicolich",
        "state_id": 3213,
        "state_code": "CA",
        "state_name": "Canelones",
        "country_id": 235,
        "country_code": "UY",
        "country_name": "Uruguay",
        "latitude": "-34.81516000",
        "longitude": "-56.02435000",
        "wikiDataId": "Q911248"
    },
    {
        "id": 129802,
        "name": "Empalme Olmos",
        "state_id": 3213,
        "state_code": "CA",
        "state_name": "Canelones",
        "country_id": 235,
        "country_code": "UY",
        "country_name": "Uruguay",
        "latitude": "-34.69753000",
        "longitude": "-55.89268000",
        "wikiDataId": "Q630016"
    },
    {
        "id": 129809,
        "name": "Joaquín Suárez",
        "state_id": 3213,
        "state_code": "CA",
        "state_name": "Canelones",
        "country_id": 235,
        "country_code": "UY",
        "country_name": "Uruguay",
        "latitude": "-34.73501000",
        "longitude": "-56.03470000",
        "wikiDataId": "Q1005809"
    },
    {
        "id": 129814,
        "name": "Juanicó",
        "state_id": 3213,
        "state_code": "CA",
        "state_name": "Canelones",
        "country_id": 235,
        "country_code": "UY",
        "country_name": "Uruguay",
        "latitude": "-34.59454000",
        "longitude": "-56.25334000",
        "wikiDataId": "Q657514"
    },
    {
        "id": 129815,
        "name": "La Floresta",
        "state_id": 3213,
        "state_code": "CA",
        "state_name": "Canelones",
        "country_id": 235,
        "country_code": "UY",
        "country_name": "Uruguay",
        "latitude": "-34.75572000",
        "longitude": "-55.68141000",
        "wikiDataId": "Q475116"
    },
    {
        "id": 129818,
        "name": "La Paz",
        "state_id": 3213,
        "state_code": "CA",
        "state_name": "Canelones",
        "country_id": 235,
        "country_code": "UY",
        "country_name": "Uruguay",
        "latitude": "-34.76031000",
        "longitude": "-56.22590000",
        "wikiDataId": "Q997833"
    },
    {
        "id": 129819,
        "name": "Las Piedras",
        "state_id": 3213,
        "state_code": "CA",
        "state_name": "Canelones",
        "country_id": 235,
        "country_code": "UY",
        "country_name": "Uruguay",
        "latitude": "-34.73020000",
        "longitude": "-56.21915000",
        "wikiDataId": "Q615470"
    },
    {
        "id": 129821,
        "name": "Las Toscas",
        "state_id": 3213,
        "state_code": "CA",
        "state_name": "Canelones",
        "country_id": 235,
        "country_code": "UY",
        "country_name": "Uruguay",
        "latitude": "-34.73333000",
        "longitude": "-55.71667000",
        "wikiDataId": "Q984757"
    },
    {
        "id": 129824,
        "name": "Los Cerrillos",
        "state_id": 3213,
        "state_code": "CA",
        "state_name": "Canelones",
        "country_id": 235,
        "country_code": "UY",
        "country_name": "Uruguay",
        "latitude": "-34.60500000",
        "longitude": "-56.35639000",
        "wikiDataId": "Q1007603"
    },
    {
        "id": 129829,
        "name": "Migues",
        "state_id": 3213,
        "state_code": "CA",
        "state_name": "Canelones",
        "country_id": 235,
        "country_code": "UY",
        "country_name": "Uruguay",
        "latitude": "-34.48759000",
        "longitude": "-55.62793000",
        "wikiDataId": "Q29585"
    },
    {
        "id": 129832,
        "name": "Montes",
        "state_id": 3213,
        "state_code": "CA",
        "state_name": "Canelones",
        "country_id": 235,
        "country_code": "UY",
        "country_name": "Uruguay",
        "latitude": "-34.49339000",
        "longitude": "-55.56219000",
        "wikiDataId": "Q162416"
    },
    {
        "id": 129841,
        "name": "Pando",
        "state_id": 3213,
        "state_code": "CA",
        "state_name": "Canelones",
        "country_id": 235,
        "country_code": "UY",
        "country_name": "Uruguay",
        "latitude": "-34.71716000",
        "longitude": "-55.95840000",
        "wikiDataId": "Q639340"
    },
    {
        "id": 129842,
        "name": "Paso de Carrasco",
        "state_id": 3213,
        "state_code": "CA",
        "state_name": "Canelones",
        "country_id": 235,
        "country_code": "UY",
        "country_name": "Uruguay",
        "latitude": "-34.86028000",
        "longitude": "-56.05222000",
        "wikiDataId": "Q2055651"
    },
    {
        "id": 129847,
        "name": "Progreso",
        "state_id": 3213,
        "state_code": "CA",
        "state_name": "Canelones",
        "country_id": 235,
        "country_code": "UY",
        "country_name": "Uruguay",
        "latitude": "-34.66737000",
        "longitude": "-56.21758000",
        "wikiDataId": "Q2000138"
    },
    {
        "id": 129858,
        "name": "San Antonio",
        "state_id": 3213,
        "state_code": "CA",
        "state_name": "Canelones",
        "country_id": 235,
        "country_code": "UY",
        "country_name": "Uruguay",
        "latitude": "-34.45130000",
        "longitude": "-56.08036000",
        "wikiDataId": "Q1005259"
    },
    {
        "id": 129859,
        "name": "San Bautista",
        "state_id": 3213,
        "state_code": "CA",
        "state_name": "Canelones",
        "country_id": 235,
        "country_code": "UY",
        "country_name": "Uruguay",
        "latitude": "-34.44016000",
        "longitude": "-55.95861000",
        "wikiDataId": "Q1005725"
    },
    {
        "id": 129862,
        "name": "San Jacinto",
        "state_id": 3213,
        "state_code": "CA",
        "state_name": "Canelones",
        "country_id": 235,
        "country_code": "UY",
        "country_name": "Uruguay",
        "latitude": "-34.54465000",
        "longitude": "-55.87151000",
        "wikiDataId": "Q525163"
    },
    {
        "id": 129865,
        "name": "San Ramón",
        "state_id": 3213,
        "state_code": "CA",
        "state_name": "Canelones",
        "country_id": 235,
        "country_code": "UY",
        "country_name": "Uruguay",
        "latitude": "-34.29155000",
        "longitude": "-55.95571000",
        "wikiDataId": "Q1784539"
    },
    {
        "id": 129869,
        "name": "Santa Lucía",
        "state_id": 3213,
        "state_code": "CA",
        "state_name": "Canelones",
        "country_id": 235,
        "country_code": "UY",
        "country_name": "Uruguay",
        "latitude": "-34.45333000",
        "longitude": "-56.39056000",
        "wikiDataId": "Q1014315"
    },
    {
        "id": 129870,
        "name": "Santa Rosa",
        "state_id": 3213,
        "state_code": "CA",
        "state_name": "Canelones",
        "country_id": 235,
        "country_code": "UY",
        "country_name": "Uruguay",
        "latitude": "-34.49819000",
        "longitude": "-56.03795000",
        "wikiDataId": "Q1020820"
    },
    {
        "id": 129874,
        "name": "Sauce",
        "state_id": 3213,
        "state_code": "CA",
        "state_name": "Canelones",
        "country_id": 235,
        "country_code": "UY",
        "country_name": "Uruguay",
        "latitude": "-34.65191000",
        "longitude": "-56.06431000",
        "wikiDataId": "Q429855"
    },
    {
        "id": 129875,
        "name": "Soca",
        "state_id": 3213,
        "state_code": "CA",
        "state_name": "Canelones",
        "country_id": 235,
        "country_code": "UY",
        "country_name": "Uruguay",
        "latitude": "-34.68432000",
        "longitude": "-55.70200000",
        "wikiDataId": "Q984836"
    },
    {
        "id": 129878,
        "name": "Tala",
        "state_id": 3213,
        "state_code": "CA",
        "state_name": "Canelones",
        "country_id": 235,
        "country_code": "UY",
        "country_name": "Uruguay",
        "latitude": "-34.34349000",
        "longitude": "-55.76375000",
        "wikiDataId": "Q2096693"
    },
    {
        "id": 129880,
        "name": "Toledo",
        "state_id": 3213,
        "state_code": "CA",
        "state_name": "Canelones",
        "country_id": 235,
        "country_code": "UY",
        "country_name": "Uruguay",
        "latitude": "-34.73807000",
        "longitude": "-56.09469000",
        "wikiDataId": "Q2096039"
    },
    {
        "id": 129773,
        "name": "Aceguá",
        "state_id": 3211,
        "state_code": "CL",
        "state_name": "Cerro Largo",
        "country_id": 235,
        "country_code": "UY",
        "country_name": "Uruguay",
        "latitude": "-31.87178000",
        "longitude": "-54.16351000",
        "wikiDataId": "Q2093378"
    },
    {
        "id": 129808,
        "name": "Isidoro Noblía",
        "state_id": 3211,
        "state_code": "CL",
        "state_name": "Cerro Largo",
        "country_id": 235,
        "country_code": "UY",
        "country_name": "Uruguay",
        "latitude": "-31.96218000",
        "longitude": "-54.12309000",
        "wikiDataId": "Q1673970"
    },
    {
        "id": 129827,
        "name": "Melo",
        "state_id": 3211,
        "state_code": "CL",
        "state_name": "Cerro Largo",
        "country_id": 235,
        "country_code": "UY",
        "country_name": "Uruguay",
        "latitude": "-32.37028000",
        "longitude": "-54.16750000",
        "wikiDataId": "Q738250"
    },
    {
        "id": 129856,
        "name": "Río Branco",
        "state_id": 3211,
        "state_code": "CL",
        "state_name": "Cerro Largo",
        "country_id": 235,
        "country_code": "UY",
        "country_name": "Uruguay",
        "latitude": "-32.59802000",
        "longitude": "-53.38583000",
        "wikiDataId": "Q1006165"
    },
    {
        "id": 129885,
        "name": "Tupambaé",
        "state_id": 3211,
        "state_code": "CL",
        "state_name": "Cerro Largo",
        "country_id": 235,
        "country_code": "UY",
        "country_name": "Uruguay",
        "latitude": "-32.83333000",
        "longitude": "-54.76667000",
        "wikiDataId": "Q1020969"
    },
    {
        "id": 129789,
        "name": "Carmelo",
        "state_id": 3208,
        "state_code": "CO",
        "state_name": "Colonia",
        "country_id": 235,
        "country_code": "UY",
        "country_name": "Uruguay",
        "latitude": "-34.00023000",
        "longitude": "-58.28402000",
        "wikiDataId": "Q1043575"
    },
    {
        "id": 129795,
        "name": "Colonia del Sacramento",
        "state_id": 3208,
        "state_code": "CO",
        "state_name": "Colonia",
        "country_id": 235,
        "country_code": "UY",
        "country_name": "Uruguay",
        "latitude": "-34.46262000",
        "longitude": "-57.83976000",
        "wikiDataId": "Q56064"
    },
    {
        "id": 129804,
        "name": "Florencio Sánchez",
        "state_id": 3208,
        "state_code": "CO",
        "state_name": "Colonia",
        "country_id": 235,
        "country_code": "UY",
        "country_name": "Uruguay",
        "latitude": "-33.87785000",
        "longitude": "-57.37166000",
        "wikiDataId": "Q972190"
    },
    {
        "id": 129813,
        "name": "Juan L. Lacaze",
        "state_id": 3208,
        "state_code": "CO",
        "state_name": "Colonia",
        "country_id": 235,
        "country_code": "UY",
        "country_name": "Uruguay",
        "latitude": "-34.41888000",
        "longitude": "-57.45285000",
        "wikiDataId": "Q657514"
    },
    {
        "id": 129834,
        "name": "Nueva Helvecia",
        "state_id": 3208,
        "state_code": "CO",
        "state_name": "Colonia",
        "country_id": 235,
        "country_code": "UY",
        "country_name": "Uruguay",
        "latitude": "-34.30000000",
        "longitude": "-57.23333000",
        "wikiDataId": "Q999572"
    },
    {
        "id": 129835,
        "name": "Nueva Palmira",
        "state_id": 3208,
        "state_code": "CO",
        "state_name": "Colonia",
        "country_id": 235,
        "country_code": "UY",
        "country_name": "Uruguay",
        "latitude": "-33.87031000",
        "longitude": "-58.41176000",
        "wikiDataId": "Q1023521"
    },
    {
        "id": 129837,
        "name": "Ombúes de Lavalle",
        "state_id": 3208,
        "state_code": "CO",
        "state_name": "Colonia",
        "country_id": 235,
        "country_code": "UY",
        "country_name": "Uruguay",
        "latitude": "-33.93783000",
        "longitude": "-57.80959000",
        "wikiDataId": "Q1020402"
    },
    {
        "id": 129855,
        "name": "Rosario",
        "state_id": 3208,
        "state_code": "CO",
        "state_name": "Colonia",
        "country_id": 235,
        "country_code": "UY",
        "country_name": "Uruguay",
        "latitude": "-34.31667000",
        "longitude": "-57.35000000",
        "wikiDataId": "Q1023540"
    },
    {
        "id": 129879,
        "name": "Tarariras",
        "state_id": 3208,
        "state_code": "CO",
        "state_name": "Colonia",
        "country_id": 235,
        "country_code": "UY",
        "country_name": "Uruguay",
        "latitude": "-34.26555000",
        "longitude": "-57.61866000",
        "wikiDataId": "Q1727968"
    },
    {
        "id": 129784,
        "name": "Blanquillo",
        "state_id": 3209,
        "state_code": "DU",
        "state_name": "Durazno",
        "country_id": 235,
        "country_code": "UY",
        "country_name": "Uruguay",
        "latitude": "-32.76667000",
        "longitude": "-55.63333000",
        "wikiDataId": "Q31880994"
    },
    {
        "id": 129788,
        "name": "Carlos Reyles",
        "state_id": 3209,
        "state_code": "DU",
        "state_name": "Durazno",
        "country_id": 235,
        "country_code": "UY",
        "country_name": "Uruguay",
        "latitude": "-33.05658000",
        "longitude": "-56.47652000",
        "wikiDataId": "Q31890171"
    },
    {
        "id": 129800,
        "name": "Durazno",
        "state_id": 3209,
        "state_code": "DU",
        "state_name": "Durazno",
        "country_id": 235,
        "country_code": "UY",
        "country_name": "Uruguay",
        "latitude": "-33.38056000",
        "longitude": "-56.52361000",
        "wikiDataId": "Q855645"
    },
    {
        "id": 129817,
        "name": "La Paloma",
        "state_id": 3209,
        "state_code": "DU",
        "state_name": "Durazno",
        "country_id": 235,
        "country_code": "UY",
        "country_name": "Uruguay",
        "latitude": "-32.72689000",
        "longitude": "-55.58270000",
        "wikiDataId": "Q281754"
    },
    {
        "id": 129866,
        "name": "Santa Bernardina",
        "state_id": 3209,
        "state_code": "DU",
        "state_name": "Durazno",
        "country_id": 235,
        "country_code": "UY",
        "country_name": "Uruguay",
        "latitude": "-33.35360000",
        "longitude": "-56.52498000",
        "wikiDataId": "Q1022299"
    },
    {
        "id": 129873,
        "name": "Sarandí del Yi",
        "state_id": 3209,
        "state_code": "DU",
        "state_name": "Durazno",
        "country_id": 235,
        "country_code": "UY",
        "country_name": "Uruguay",
        "latitude": "-33.35000000",
        "longitude": "-55.63333000",
        "wikiDataId": "Q1784163"
    },
    {
        "id": 129892,
        "name": "Villa del Carmen",
        "state_id": 3209,
        "state_code": "DU",
        "state_name": "Durazno",
        "country_id": 235,
        "country_code": "UY",
        "country_name": "Uruguay",
        "latitude": "-33.23943000",
        "longitude": "-56.00936000",
        "wikiDataId": "Q289379"
    },
    {
        "id": 129884,
        "name": "Trinidad",
        "state_id": 3203,
        "state_code": "FS",
        "state_name": "Flores",
        "country_id": 235,
        "country_code": "UY",
        "country_name": "Uruguay",
        "latitude": "-33.51650000",
        "longitude": "-56.89957000",
        "wikiDataId": "Q862508"
    },
    {
        "id": 129771,
        "name": "25 de Agosto",
        "state_id": 3217,
        "state_code": "FD",
        "state_name": "Florida",
        "country_id": 235,
        "country_code": "UY",
        "country_name": "Uruguay",
        "latitude": "-34.41167000",
        "longitude": "-56.40222000",
        "wikiDataId": "Q218465"
    },
    {
        "id": 129772,
        "name": "25 de Mayo",
        "state_id": 3217,
        "state_code": "FD",
        "state_name": "Florida",
        "country_id": 235,
        "country_code": "UY",
        "country_name": "Uruguay",
        "latitude": "-34.18917000",
        "longitude": "-56.33944000",
        "wikiDataId": "Q218472"
    },
    {
        "id": 129776,
        "name": "Alejandro Gallinal",
        "state_id": 3217,
        "state_code": "FD",
        "state_name": "Florida",
        "country_id": 235,
        "country_code": "UY",
        "country_name": "Uruguay",
        "latitude": "-33.86252000",
        "longitude": "-55.54264000",
        "wikiDataId": "Q31892887"
    },
    {
        "id": 129786,
        "name": "Cardal",
        "state_id": 3217,
        "state_code": "FD",
        "state_name": "Florida",
        "country_id": 235,
        "country_code": "UY",
        "country_name": "Uruguay",
        "latitude": "-34.29056000",
        "longitude": "-56.38889000",
        "wikiDataId": "Q958365"
    },
    {
        "id": 129791,
        "name": "Casupá",
        "state_id": 3217,
        "state_code": "FD",
        "state_name": "Florida",
        "country_id": 235,
        "country_code": "UY",
        "country_name": "Uruguay",
        "latitude": "-34.09994000",
        "longitude": "-55.64811000",
        "wikiDataId": "Q1050009"
    },
    {
        "id": 129805,
        "name": "Florida",
        "state_id": 3217,
        "state_code": "FD",
        "state_name": "Florida",
        "country_id": 235,
        "country_code": "UY",
        "country_name": "Uruguay",
        "latitude": "-34.09556000",
        "longitude": "-56.21417000",
        "wikiDataId": "Q842472"
    },
    {
        "id": 129872,
        "name": "Sarandí Grande",
        "state_id": 3217,
        "state_code": "FD",
        "state_name": "Florida",
        "country_id": 235,
        "country_code": "UY",
        "country_name": "Uruguay",
        "latitude": "-33.73333000",
        "longitude": "-56.33333000",
        "wikiDataId": "Q1783586"
    },
    {
        "id": 129810,
        "name": "José Batlle y Ordóñez",
        "state_id": 3215,
        "state_code": "LA",
        "state_name": "Lavalleja",
        "country_id": 235,
        "country_code": "UY",
        "country_name": "Uruguay",
        "latitude": "-33.46667000",
        "longitude": "-55.11667000",
        "wikiDataId": "Q1668942"
    },
    {
        "id": 129812,
        "name": "José Pedro Varela",
        "state_id": 3215,
        "state_code": "LA",
        "state_name": "Lavalleja",
        "country_id": 235,
        "country_code": "UY",
        "country_name": "Uruguay",
        "latitude": "-33.45451000",
        "longitude": "-54.53586000",
        "wikiDataId": "Q1709570"
    },
    {
        "id": 129826,
        "name": "Mariscala",
        "state_id": 3215,
        "state_code": "LA",
        "state_name": "Lavalleja",
        "country_id": 235,
        "country_code": "UY",
        "country_name": "Uruguay",
        "latitude": "-34.04085000",
        "longitude": "-54.77732000",
        "wikiDataId": "Q1005301"
    },
    {
        "id": 129830,
        "name": "Minas",
        "state_id": 3215,
        "state_code": "LA",
        "state_name": "Lavalleja",
        "country_id": 235,
        "country_code": "UY",
        "country_name": "Uruguay",
        "latitude": "-34.37589000",
        "longitude": "-55.23771000",
        "wikiDataId": "Q868205"
    },
    {
        "id": 129876,
        "name": "Solís de Mataojo",
        "state_id": 3215,
        "state_code": "LA",
        "state_name": "Lavalleja",
        "country_id": 235,
        "country_code": "UY",
        "country_name": "Uruguay",
        "latitude": "-34.59951000",
        "longitude": "-55.46808000",
        "wikiDataId": "Q2096045"
    },
    {
        "id": 129775,
        "name": "Aiguá",
        "state_id": 3206,
        "state_code": "MA",
        "state_name": "Maldonado",
        "country_id": 235,
        "country_code": "UY",
        "country_name": "Uruguay",
        "latitude": "-34.20498000",
        "longitude": "-54.75665000",
        "wikiDataId": "Q404803"
    },
    {
        "id": 129825,
        "name": "Maldonado",
        "state_id": 3206,
        "state_code": "MA",
        "state_name": "Maldonado",
        "country_id": 235,
        "country_code": "UY",
        "country_name": "Uruguay",
        "latitude": "-34.90000000",
        "longitude": "-54.95000000",
        "wikiDataId": "Q16258"
    },
    {
        "id": 129840,
        "name": "Pan de Azúcar",
        "state_id": 3206,
        "state_code": "MA",
        "state_name": "Maldonado",
        "country_id": 235,
        "country_code": "UY",
        "country_name": "Uruguay",
        "latitude": "-34.77870000",
        "longitude": "-55.23582000",
        "wikiDataId": "Q1532147"
    },
    {
        "id": 129846,
        "name": "Piriápolis",
        "state_id": 3206,
        "state_code": "MA",
        "state_name": "Maldonado",
        "country_id": 235,
        "country_code": "UY",
        "country_name": "Uruguay",
        "latitude": "-34.86287000",
        "longitude": "-55.27471000",
        "wikiDataId": "Q1006155"
    },
    {
        "id": 129848,
        "name": "Punta del Este",
        "state_id": 3206,
        "state_code": "MA",
        "state_name": "Maldonado",
        "country_id": 235,
        "country_code": "UY",
        "country_name": "Uruguay",
        "latitude": "-34.94747000",
        "longitude": "-54.93382000",
        "wikiDataId": "Q56069"
    },
    {
        "id": 129860,
        "name": "San Carlos",
        "state_id": 3206,
        "state_code": "MA",
        "state_name": "Maldonado",
        "country_id": 235,
        "country_code": "UY",
        "country_name": "Uruguay",
        "latitude": "-34.79123000",
        "longitude": "-54.91824000",
        "wikiDataId": "Q374670"
    },
    {
        "id": 153689,
        "name": "Aires Puros",
        "state_id": 3218,
        "state_code": "MO",
        "state_name": "Montevideo",
        "country_id": 235,
        "country_code": "UY",
        "country_name": "Uruguay",
        "latitude": "-34.85200000",
        "longitude": "-56.18300000",
        "wikiDataId": "Q408664"
    },
    {
        "id": 153690,
        "name": "Arroyo Seco",
        "state_id": 3218,
        "state_code": "MO",
        "state_name": "Montevideo",
        "country_id": 235,
        "country_code": "UY",
        "country_name": "Uruguay",
        "latitude": "-34.80400000",
        "longitude": "-56.27700000",
        "wikiDataId": "Q97168938"
    },
    {
        "id": 153691,
        "name": "Atahualpa",
        "state_id": 3218,
        "state_code": "MO",
        "state_name": "Montevideo",
        "country_id": 235,
        "country_code": "UY",
        "country_name": "Uruguay",
        "latitude": "-34.80900000",
        "longitude": "-56.23000000",
        "wikiDataId": "Q753192"
    },
    {
        "id": 153692,
        "name": "Bañados de Carrasco",
        "state_id": 3218,
        "state_code": "MO",
        "state_name": "Montevideo",
        "country_id": 235,
        "country_code": "UY",
        "country_name": "Uruguay",
        "latitude": "-34.82100000",
        "longitude": "-56.06700000",
        "wikiDataId": "Q812710"
    },
    {
        "id": 153693,
        "name": "Barra de Carrasco",
        "state_id": 3218,
        "state_code": "MO",
        "state_name": "Montevideo",
        "country_id": 235,
        "country_code": "UY",
        "country_name": "Uruguay",
        "latitude": "-34.88400000",
        "longitude": "-56.04700000",
        "wikiDataId": "Q808781"
    },
    {
        "id": 153694,
        "name": "Barrio Sur",
        "state_id": 3218,
        "state_code": "MO",
        "state_name": "Montevideo",
        "country_id": 235,
        "country_code": "UY",
        "country_name": "Uruguay",
        "latitude": "-34.90800000",
        "longitude": "-56.19400000",
        "wikiDataId": "Q808953"
    },
    {
        "id": 153695,
        "name": "Bella Italia",
        "state_id": 3218,
        "state_code": "MO",
        "state_name": "Montevideo",
        "country_id": 235,
        "country_code": "UY",
        "country_name": "Uruguay",
        "latitude": "-34.85600000",
        "longitude": "-56.15500000",
        "wikiDataId": "Q122396855"
    },
    {
        "id": 149276,
        "name": "Bella Vista",
        "state_id": 3218,
        "state_code": "MO",
        "state_name": "Montevideo",
        "country_id": 235,
        "country_code": "UY",
        "country_name": "Uruguay",
        "latitude": "-34.87527778",
        "longitude": "-56.18666667",
        "wikiDataId": "Q13479688"
    },
    {
        "id": 149277,
        "name": "Belvedere",
        "state_id": 3218,
        "state_code": "MO",
        "state_name": "Montevideo",
        "country_id": 235,
        "country_code": "UY",
        "country_name": "Uruguay",
        "latitude": "-34.85155556",
        "longitude": "-56.21611111",
        "wikiDataId": "Q1005240"
    },
    {
        "id": 149278,
        "name": "Buceo",
        "state_id": 3218,
        "state_code": "MO",
        "state_name": "Montevideo",
        "country_id": 235,
        "country_code": "UY",
        "country_name": "Uruguay",
        "latitude": "-34.90000000",
        "longitude": "-56.13305556",
        "wikiDataId": "Q997676"
    },
    {
        "id": 153696,
        "name": "Capurro",
        "state_id": 3218,
        "state_code": "MO",
        "state_name": "Montevideo",
        "country_id": 235,
        "country_code": "UY",
        "country_name": "Uruguay",
        "latitude": "-34.90500000",
        "longitude": "-56.21700000",
        "wikiDataId": "Q986346"
    },
    {
        "id": 149280,
        "name": "Carrasco",
        "state_id": 3218,
        "state_code": "MO",
        "state_name": "Montevideo",
        "country_id": 235,
        "country_code": "UY",
        "country_name": "Uruguay",
        "latitude": "-34.88333333",
        "longitude": "-56.06666667",
        "wikiDataId": "Q1005003"
    },
    {
        "id": 153697,
        "name": "Carrasco Norte",
        "state_id": 3218,
        "state_code": "MO",
        "state_name": "Montevideo",
        "country_id": 235,
        "country_code": "UY",
        "country_name": "Uruguay",
        "latitude": "-34.86800000",
        "longitude": "-56.04300000",
        "wikiDataId": "Q984512"
    },
    {
        "id": 149281,
        "name": "Casabó",
        "state_id": 3218,
        "state_code": "MO",
        "state_name": "Montevideo",
        "country_id": 235,
        "country_code": "UY",
        "country_name": "Uruguay",
        "latitude": "-34.86388889",
        "longitude": "-56.34111111",
        "wikiDataId": "Q984873"
    },
    {
        "id": 153698,
        "name": "Casavalle",
        "state_id": 3218,
        "state_code": "MO",
        "state_name": "Montevideo",
        "country_id": 235,
        "country_code": "UY",
        "country_name": "Uruguay",
        "latitude": "-34.84300000",
        "longitude": "-56.20300000",
        "wikiDataId": "Q984924"
    },
    {
        "id": 149282,
        "name": "Centro",
        "state_id": 3218,
        "state_code": "MO",
        "state_name": "Montevideo",
        "country_id": 235,
        "country_code": "UY",
        "country_name": "Uruguay",
        "latitude": "-34.90361111",
        "longitude": "-56.18833333",
        "wikiDataId": "Q984382"
    },
    {
        "id": 153699,
        "name": "Cerrito",
        "state_id": 3218,
        "state_code": "MO",
        "state_name": "Montevideo",
        "country_id": 235,
        "country_code": "UY",
        "country_name": "Uruguay",
        "latitude": "-34.81500000",
        "longitude": "-56.22500000",
        "wikiDataId": "Q177318"
    },
    {
        "id": 149307,
        "name": "Cerro",
        "state_id": 3218,
        "state_code": "MO",
        "state_name": "Montevideo",
        "country_id": 235,
        "country_code": "UY",
        "country_name": "Uruguay",
        "latitude": "-34.88444444",
        "longitude": "-56.25138889",
        "wikiDataId": "Q1010338"
    },
    {
        "id": 153700,
        "name": "Ciudad Vieja",
        "state_id": 3218,
        "state_code": "MO",
        "state_name": "Montevideo",
        "country_id": 235,
        "country_code": "UY",
        "country_name": "Uruguay",
        "latitude": "-34.90800000",
        "longitude": "-56.20400000",
        "wikiDataId": "Q1007576"
    },
    {
        "id": 153701,
        "name": "Colón",
        "state_id": 3218,
        "state_code": "MO",
        "state_name": "Montevideo",
        "country_id": 235,
        "country_code": "UY",
        "country_name": "Uruguay",
        "latitude": "-34.86500000",
        "longitude": "-56.18000000",
        "wikiDataId": "Q984425"
    },
    {
        "id": 149286,
        "name": "Conciliación",
        "state_id": 3218,
        "state_code": "MO",
        "state_name": "Montevideo",
        "country_id": 235,
        "country_code": "UY",
        "country_name": "Uruguay",
        "latitude": "-34.82361111",
        "longitude": "-56.23194444",
        "wikiDataId": "Q985021"
    },
    {
        "id": 149287,
        "name": "Cordón",
        "state_id": 3218,
        "state_code": "MO",
        "state_name": "Montevideo",
        "country_id": 235,
        "country_code": "UY",
        "country_name": "Uruguay",
        "latitude": "-34.90000000",
        "longitude": "-56.17858333",
        "wikiDataId": "Q1005742"
    },
    {
        "id": 149288,
        "name": "Flor de Maroñas",
        "state_id": 3218,
        "state_code": "MO",
        "state_name": "Montevideo",
        "country_id": 235,
        "country_code": "UY",
        "country_name": "Uruguay",
        "latitude": "-34.85055556",
        "longitude": "-56.12472222",
        "wikiDataId": "Q984899"
    },
    {
        "id": 153702,
        "name": "Goes",
        "state_id": 3218,
        "state_code": "MO",
        "state_name": "Montevideo",
        "country_id": 235,
        "country_code": "UY",
        "country_name": "Uruguay",
        "latitude": "-34.87500000",
        "longitude": "-56.19200000",
        "wikiDataId": "Q17633166"
    },
    {
        "id": 149289,
        "name": "Ituzaingó",
        "state_id": 3218,
        "state_code": "MO",
        "state_name": "Montevideo",
        "country_id": 235,
        "country_code": "UY",
        "country_name": "Uruguay",
        "latitude": "-34.84750000",
        "longitude": "-56.14361111",
        "wikiDataId": "Q985110"
    },
    {
        "id": 153703,
        "name": "Jacinto Vera",
        "state_id": 3218,
        "state_code": "MO",
        "state_name": "Montevideo",
        "country_id": 235,
        "country_code": "UY",
        "country_name": "Uruguay",
        "latitude": "-34.88300000",
        "longitude": "-56.16600000",
        "wikiDataId": "Q6336405"
    },
    {
        "id": 153704,
        "name": "Jardines del Hipódromo",
        "state_id": 3218,
        "state_code": "MO",
        "state_name": "Montevideo",
        "country_id": 235,
        "country_code": "UY",
        "country_name": "Uruguay",
        "latitude": "-34.88100000",
        "longitude": "-56.15300000",
        "wikiDataId": "Q984915"
    },
    {
        "id": 153705,
        "name": "La Blanqueada",
        "state_id": 3218,
        "state_code": "MO",
        "state_name": "Montevideo",
        "country_id": 235,
        "country_code": "UY",
        "country_name": "Uruguay",
        "latitude": "-34.89700000",
        "longitude": "-56.18500000",
        "wikiDataId": "Q6197335"
    },
    {
        "id": 153706,
        "name": "La Comercial",
        "state_id": 3218,
        "state_code": "MO",
        "state_name": "Montevideo",
        "country_id": 235,
        "country_code": "UY",
        "country_name": "Uruguay",
        "latitude": "-34.89400000",
        "longitude": "-56.19700000",
        "wikiDataId": "Q984523"
    },
    {
        "id": 153707,
        "name": "La Figurita",
        "state_id": 3218,
        "state_code": "MO",
        "state_name": "Montevideo",
        "country_id": 235,
        "country_code": "UY",
        "country_name": "Uruguay",
        "latitude": "-34.88600000",
        "longitude": "-56.20300000",
        "wikiDataId": "Q986342"
    },
    {
        "id": 153708,
        "name": "La Teja",
        "state_id": 3218,
        "state_code": "MO",
        "state_name": "Montevideo",
        "country_id": 235,
        "country_code": "UY",
        "country_name": "Uruguay",
        "latitude": "-34.86200000",
        "longitude": "-56.23600000",
        "wikiDataId": "Q984835"
    },
    {
        "id": 149290,
        "name": "La Unión",
        "state_id": 3218,
        "state_code": "MO",
        "state_name": "Montevideo",
        "country_id": 235,
        "country_code": "UY",
        "country_name": "Uruguay",
        "latitude": "-34.87861111",
        "longitude": "-56.13583333",
        "wikiDataId": "Q984518"
    },
    {
        "id": 153709,
        "name": "Larrañaga",
        "state_id": 3218,
        "state_code": "MO",
        "state_name": "Montevideo",
        "country_id": 235,
        "country_code": "UY",
        "country_name": "Uruguay",
        "latitude": "-34.86100000",
        "longitude": "-56.16300000",
        "wikiDataId": "Q1806010"
    },
    {
        "id": 153710,
        "name": "Las Acacias",
        "state_id": 3218,
        "state_code": "MO",
        "state_name": "Montevideo",
        "country_id": 235,
        "country_code": "UY",
        "country_name": "Uruguay",
        "latitude": "-34.85500000",
        "longitude": "-56.17000000",
        "wikiDataId": "Q1661914"
    },
    {
        "id": 153711,
        "name": "Lezica",
        "state_id": 3218,
        "state_code": "MO",
        "state_name": "Montevideo",
        "country_id": 235,
        "country_code": "UY",
        "country_name": "Uruguay",
        "latitude": "-34.84600000",
        "longitude": "-56.22300000",
        "wikiDataId": "Q986348"
    },
    {
        "id": 149291,
        "name": "Malvín",
        "state_id": 3218,
        "state_code": "MO",
        "state_name": "Montevideo",
        "country_id": 235,
        "country_code": "UY",
        "country_name": "Uruguay",
        "latitude": "-34.89352778",
        "longitude": "-56.09994444",
        "wikiDataId": "Q1004920"
    },
    {
        "id": 153712,
        "name": "Malvín Norte",
        "state_id": 3218,
        "state_code": "MO",
        "state_name": "Montevideo",
        "country_id": 235,
        "country_code": "UY",
        "country_name": "Uruguay",
        "latitude": "-34.87800000",
        "longitude": "-56.08300000",
        "wikiDataId": "Q1005816"
    },
    {
        "id": 149292,
        "name": "Manga",
        "state_id": 3218,
        "state_code": "MO",
        "state_name": "Montevideo",
        "country_id": 235,
        "country_code": "UY",
        "country_name": "Uruguay",
        "latitude": "-34.80722222",
        "longitude": "-56.13805556",
        "wikiDataId": "Q985379"
    },
    {
        "id": 153713,
        "name": "Marconi",
        "state_id": 3218,
        "state_code": "MO",
        "state_name": "Montevideo",
        "country_id": 235,
        "country_code": "UY",
        "country_name": "Uruguay",
        "latitude": "-34.86200000",
        "longitude": "-56.14700000",
        "wikiDataId": "Q56671640"
    },
    {
        "id": 149293,
        "name": "Maroñas",
        "state_id": 3218,
        "state_code": "MO",
        "state_name": "Montevideo",
        "country_id": 235,
        "country_code": "UY",
        "country_name": "Uruguay",
        "latitude": "-34.86338889",
        "longitude": "-56.12963889",
        "wikiDataId": "Q984197"
    },
    {
        "id": 153714,
        "name": "Melilla",
        "state_id": 3218,
        "state_code": "MO",
        "state_name": "Montevideo",
        "country_id": 235,
        "country_code": "UY",
        "country_name": "Uruguay",
        "latitude": "-34.83700000",
        "longitude": "-56.25900000",
        "wikiDataId": "Q6009580"
    },
    {
        "id": 153715,
        "name": "Mercado Modelo",
        "state_id": 3218,
        "state_code": "MO",
        "state_name": "Montevideo",
        "country_id": 235,
        "country_code": "UY",
        "country_name": "Uruguay",
        "latitude": "-34.85600000",
        "longitude": "-56.20200000",
        "wikiDataId": "Q1788762"
    },
    {
        "id": 129833,
        "name": "Montevideo",
        "state_id": 3218,
        "state_code": "MO",
        "state_name": "Montevideo",
        "country_id": 235,
        "country_code": "UY",
        "country_name": "Uruguay",
        "latitude": "-34.90328000",
        "longitude": "-56.18816000",
        "wikiDataId": "Q1335"
    },
    {
        "id": 149294,
        "name": "Nuevo París",
        "state_id": 3218,
        "state_code": "MO",
        "state_name": "Montevideo",
        "country_id": 235,
        "country_code": "UY",
        "country_name": "Uruguay",
        "latitude": "-34.83333333",
        "longitude": "-56.25000000",
        "wikiDataId": "Q751376"
    },
    {
        "id": 129838,
        "name": "Pajas Blancas",
        "state_id": 3218,
        "state_code": "MO",
        "state_name": "Montevideo",
        "country_id": 235,
        "country_code": "UY",
        "country_name": "Uruguay",
        "latitude": "-34.80167000",
        "longitude": "-56.33417000",
        "wikiDataId": "Q984873"
    },
    {
        "id": 153716,
        "name": "Palermo",
        "state_id": 3218,
        "state_code": "MO",
        "state_name": "Montevideo",
        "country_id": 235,
        "country_code": "UY",
        "country_name": "Uruguay",
        "latitude": "-34.90300000",
        "longitude": "-56.18200000",
        "wikiDataId": "Q984385"
    },
    {
        "id": 153717,
        "name": "Parque Batlle",
        "state_id": 3218,
        "state_code": "MO",
        "state_name": "Montevideo",
        "country_id": 235,
        "country_code": "UY",
        "country_name": "Uruguay",
        "latitude": "-34.90000000",
        "longitude": "-56.18000000",
        "wikiDataId": "Q588205"
    },
    {
        "id": 153718,
        "name": "Parque Rodó",
        "state_id": 3218,
        "state_code": "MO",
        "state_name": "Montevideo",
        "country_id": 235,
        "country_code": "UY",
        "country_name": "Uruguay",
        "latitude": "-34.90800000",
        "longitude": "-56.17100000",
        "wikiDataId": "Q124499800"
    },
    {
        "id": 153719,
        "name": "Paso de la Arena",
        "state_id": 3218,
        "state_code": "MO",
        "state_name": "Montevideo",
        "country_id": 235,
        "country_code": "UY",
        "country_name": "Uruguay",
        "latitude": "-34.86100000",
        "longitude": "-56.23900000",
        "wikiDataId": "Q984720"
    },
    {
        "id": 149295,
        "name": "Paso Molino",
        "state_id": 3218,
        "state_code": "MO",
        "state_name": "Montevideo",
        "country_id": 235,
        "country_code": "UY",
        "country_name": "Uruguay",
        "latitude": "-34.85000000",
        "longitude": "-56.21666667",
        "wikiDataId": "Q10345885"
    },
    {
        "id": 149296,
        "name": "Peñarol",
        "state_id": 3218,
        "state_code": "MO",
        "state_name": "Montevideo",
        "country_id": 235,
        "country_code": "UY",
        "country_name": "Uruguay",
        "latitude": "-34.82519444",
        "longitude": "-56.19916667",
        "wikiDataId": "Q1007597"
    },
    {
        "id": 153720,
        "name": "Perez Castellanos",
        "state_id": 3218,
        "state_code": "MO",
        "state_name": "Montevideo",
        "country_id": 235,
        "country_code": "UY",
        "country_name": "Uruguay",
        "latitude": "-34.84300000",
        "longitude": "-56.21300000",
        "wikiDataId": "Q519177"
    },
    {
        "id": 149297,
        "name": "Piedras Blancas",
        "state_id": 3218,
        "state_code": "MO",
        "state_name": "Montevideo",
        "country_id": 235,
        "country_code": "UY",
        "country_name": "Uruguay",
        "latitude": "-34.82361111",
        "longitude": "-56.14027778",
        "wikiDataId": "Q984919"
    },
    {
        "id": 149298,
        "name": "Pocitos",
        "state_id": 3218,
        "state_code": "MO",
        "state_name": "Montevideo",
        "country_id": 235,
        "country_code": "UY",
        "country_name": "Uruguay",
        "latitude": "-34.90833333",
        "longitude": "-56.15000000",
        "wikiDataId": "Q2094894"
    },
    {
        "id": 153721,
        "name": "Prado",
        "state_id": 3218,
        "state_code": "MO",
        "state_name": "Montevideo",
        "country_id": 235,
        "country_code": "UY",
        "country_name": "Uruguay",
        "latitude": "-34.85600000",
        "longitude": "-56.20400000",
        "wikiDataId": "Q389478"
    },
    {
        "id": 149299,
        "name": "Punta Carretas",
        "state_id": 3218,
        "state_code": "MO",
        "state_name": "Montevideo",
        "country_id": 235,
        "country_code": "UY",
        "country_name": "Uruguay",
        "latitude": "-34.92188889",
        "longitude": "-56.15944444",
        "wikiDataId": "Q984390"
    },
    {
        "id": 153723,
        "name": "Punta de Rieles",
        "state_id": 3218,
        "state_code": "MO",
        "state_name": "Montevideo",
        "country_id": 235,
        "country_code": "UY",
        "country_name": "Uruguay",
        "latitude": "-34.84700000",
        "longitude": "-56.25200000",
        "wikiDataId": "Q2118579"
    },
    {
        "id": 153722,
        "name": "Punta Espinillo",
        "state_id": 3218,
        "state_code": "MO",
        "state_name": "Montevideo",
        "country_id": 235,
        "country_code": "UY",
        "country_name": "Uruguay",
        "latitude": "-34.83500000",
        "longitude": "-56.28600000",
        "wikiDataId": "Q18418589"
    },
    {
        "id": 149300,
        "name": "Punta Gorda",
        "state_id": 3218,
        "state_code": "MO",
        "state_name": "Montevideo",
        "country_id": 235,
        "country_code": "UY",
        "country_name": "Uruguay",
        "latitude": "-34.88647222",
        "longitude": "-56.08983333",
        "wikiDataId": "Q984180"
    },
    {
        "id": 149301,
        "name": "Reducto",
        "state_id": 3218,
        "state_code": "MO",
        "state_name": "Montevideo",
        "country_id": 235,
        "country_code": "UY",
        "country_name": "Uruguay",
        "latitude": "-34.87831944",
        "longitude": "-56.18957778",
        "wikiDataId": "Q984388"
    },
    {
        "id": 129871,
        "name": "Santiago Vázquez",
        "state_id": 3218,
        "state_code": "MO",
        "state_name": "Montevideo",
        "country_id": 235,
        "country_code": "UY",
        "country_name": "Uruguay",
        "latitude": "-34.79028000",
        "longitude": "-56.35000000",
        "wikiDataId": "Q3698900"
    },
    {
        "id": 149302,
        "name": "Sayago",
        "state_id": 3218,
        "state_code": "MO",
        "state_name": "Montevideo",
        "country_id": 235,
        "country_code": "UY",
        "country_name": "Uruguay",
        "latitude": "-34.83583333",
        "longitude": "-56.21250000",
        "wikiDataId": "Q1004942"
    },
    {
        "id": 149303,
        "name": "Tres Cruces",
        "state_id": 3218,
        "state_code": "MO",
        "state_name": "Montevideo",
        "country_id": 235,
        "country_code": "UY",
        "country_name": "Uruguay",
        "latitude": "-34.89583333",
        "longitude": "-56.16805556",
        "wikiDataId": "Q984193"
    },
    {
        "id": 153724,
        "name": "Tres Ombues",
        "state_id": 3218,
        "state_code": "MO",
        "state_name": "Montevideo",
        "country_id": 235,
        "country_code": "UY",
        "country_name": "Uruguay",
        "latitude": "-34.76600000",
        "longitude": "-56.33000000",
        "wikiDataId": "Q1304029"
    },
    {
        "id": 149304,
        "name": "Villa Española",
        "state_id": 3218,
        "state_code": "MO",
        "state_name": "Montevideo",
        "country_id": 235,
        "country_code": "UY",
        "country_name": "Uruguay",
        "latitude": "-34.86388889",
        "longitude": "-56.14472222",
        "wikiDataId": "Q984929"
    },
    {
        "id": 149305,
        "name": "Villa García",
        "state_id": 3218,
        "state_code": "MO",
        "state_name": "Montevideo",
        "country_id": 235,
        "country_code": "UY",
        "country_name": "Uruguay",
        "latitude": "-34.78111000",
        "longitude": "-56.05333000",
        "wikiDataId": "Q7930332"
    },
    {
        "id": 149306,
        "name": "Villa Muñoz",
        "state_id": 3218,
        "state_code": "MO",
        "state_name": "Montevideo",
        "country_id": 235,
        "country_code": "UY",
        "country_name": "Uruguay",
        "latitude": "-34.88781389",
        "longitude": "-56.17701389",
        "wikiDataId": "Q984422"
    },
    {
        "id": 129803,
        "name": "Estación Porvenir",
        "state_id": 3212,
        "state_code": "PA",
        "state_name": "Paysandú",
        "country_id": 235,
        "country_code": "UY",
        "country_name": "Uruguay",
        "latitude": "-32.37085000",
        "longitude": "-57.85371000",
        "wikiDataId": "Q630016"
    },
    {
        "id": 129807,
        "name": "Guichón",
        "state_id": 3212,
        "state_code": "PA",
        "state_name": "Paysandú",
        "country_id": 235,
        "country_code": "UY",
        "country_name": "Uruguay",
        "latitude": "-32.35846000",
        "longitude": "-57.19778000",
        "wikiDataId": "Q603086"
    },
    {
        "id": 129844,
        "name": "Paysandú",
        "state_id": 3212,
        "state_code": "PA",
        "state_name": "Paysandú",
        "country_id": 235,
        "country_code": "UY",
        "country_name": "Uruguay",
        "latitude": "-32.31710000",
        "longitude": "-58.08072000",
        "wikiDataId": "Q309442"
    },
    {
        "id": 129845,
        "name": "Piedras Coloradas",
        "state_id": 3212,
        "state_code": "PA",
        "state_name": "Paysandú",
        "country_id": 235,
        "country_code": "UY",
        "country_name": "Uruguay",
        "latitude": "-32.37183000",
        "longitude": "-57.60901000",
        "wikiDataId": "Q530827"
    },
    {
        "id": 129850,
        "name": "Quebracho",
        "state_id": 3212,
        "state_code": "PA",
        "state_name": "Paysandú",
        "country_id": 235,
        "country_code": "UY",
        "country_name": "Uruguay",
        "latitude": "-31.93526000",
        "longitude": "-57.90140000",
        "wikiDataId": "Q2095080"
    },
    {
        "id": 129861,
        "name": "San Félix",
        "state_id": 3212,
        "state_code": "PA",
        "state_name": "Paysandú",
        "country_id": 235,
        "country_code": "UY",
        "country_name": "Uruguay",
        "latitude": "-32.34631000",
        "longitude": "-58.10094000",
        "wikiDataId": "Q2094814"
    },
    {
        "id": 129806,
        "name": "Fray Bentos",
        "state_id": 3210,
        "state_code": "RN",
        "state_name": "Río Negro",
        "country_id": 235,
        "country_code": "UY",
        "country_name": "Uruguay",
        "latitude": "-33.11651000",
        "longitude": "-58.31067000",
        "wikiDataId": "Q849835"
    },
    {
        "id": 129836,
        "name": "Nuevo Berlín",
        "state_id": 3210,
        "state_code": "RN",
        "state_name": "Río Negro",
        "country_id": 235,
        "country_code": "UY",
        "country_name": "Uruguay",
        "latitude": "-32.97974000",
        "longitude": "-58.05858000",
        "wikiDataId": "Q1714088"
    },
    {
        "id": 129863,
        "name": "San Javier",
        "state_id": 3210,
        "state_code": "RN",
        "state_name": "Río Negro",
        "country_id": 235,
        "country_code": "UY",
        "country_name": "Uruguay",
        "latitude": "-32.66523000",
        "longitude": "-58.13320000",
        "wikiDataId": "Q518618"
    },
    {
        "id": 129893,
        "name": "Young",
        "state_id": 3210,
        "state_code": "RN",
        "state_name": "Río Negro",
        "country_id": 235,
        "country_code": "UY",
        "country_name": "Uruguay",
        "latitude": "-32.69844000",
        "longitude": "-57.62693000",
        "wikiDataId": "Q1005607"
    },
    {
        "id": 129831,
        "name": "Minas de Corrales",
        "state_id": 3207,
        "state_code": "RV",
        "state_name": "Rivera",
        "country_id": 235,
        "country_code": "UY",
        "country_name": "Uruguay",
        "latitude": "-31.57375000",
        "longitude": "-55.47075000",
        "wikiDataId": "Q1020376"
    },
    {
        "id": 129852,
        "name": "Rivera",
        "state_id": 3207,
        "state_code": "RV",
        "state_name": "Rivera",
        "country_id": 235,
        "country_code": "UY",
        "country_name": "Uruguay",
        "latitude": "-30.90534000",
        "longitude": "-55.55076000",
        "wikiDataId": "Q646498"
    },
    {
        "id": 129882,
        "name": "Tranqueras",
        "state_id": 3207,
        "state_code": "RV",
        "state_name": "Rivera",
        "country_id": 235,
        "country_code": "UY",
        "country_name": "Uruguay",
        "latitude": "-31.20000000",
        "longitude": "-55.75000000",
        "wikiDataId": "Q1784710"
    },
    {
        "id": 129888,
        "name": "Vichadero",
        "state_id": 3207,
        "state_code": "RV",
        "state_name": "Rivera",
        "country_id": 235,
        "country_code": "UY",
        "country_name": "Uruguay",
        "latitude": "-31.77794000",
        "longitude": "-54.69183000",
        "wikiDataId": "Q2093578"
    },
    {
        "id": 129790,
        "name": "Castillos",
        "state_id": 3216,
        "state_code": "RO",
        "state_name": "Rocha",
        "country_id": 235,
        "country_code": "UY",
        "country_name": "Uruguay",
        "latitude": "-34.19871000",
        "longitude": "-53.85919000",
        "wikiDataId": "Q953667"
    },
    {
        "id": 129792,
        "name": "Cebollatí",
        "state_id": 3216,
        "state_code": "RO",
        "state_name": "Rocha",
        "country_id": 235,
        "country_code": "UY",
        "country_name": "Uruguay",
        "latitude": "-33.26703000",
        "longitude": "-53.79425000",
        "wikiDataId": "Q1022303"
    },
    {
        "id": 129793,
        "name": "Chui",
        "state_id": 3216,
        "state_code": "RO",
        "state_name": "Rocha",
        "country_id": 235,
        "country_code": "UY",
        "country_name": "Uruguay",
        "latitude": "-33.69792000",
        "longitude": "-53.45926000",
        "wikiDataId": "Q1026307"
    },
    {
        "id": 129798,
        "name": "Dieciocho de Julio",
        "state_id": 3216,
        "state_code": "RO",
        "state_name": "Rocha",
        "country_id": 235,
        "country_code": "UY",
        "country_name": "Uruguay",
        "latitude": "-33.68216000",
        "longitude": "-53.55325000",
        "wikiDataId": "Q204526"
    },
    {
        "id": 129816,
        "name": "La Paloma",
        "state_id": 3216,
        "state_code": "RO",
        "state_name": "Rocha",
        "country_id": 235,
        "country_code": "UY",
        "country_name": "Uruguay",
        "latitude": "-34.66268000",
        "longitude": "-54.16452000",
        "wikiDataId": "Q893173"
    },
    {
        "id": 129822,
        "name": "Lascano",
        "state_id": 3216,
        "state_code": "RO",
        "state_name": "Rocha",
        "country_id": 235,
        "country_code": "UY",
        "country_name": "Uruguay",
        "latitude": "-33.67235000",
        "longitude": "-54.20650000",
        "wikiDataId": "Q1013691"
    },
    {
        "id": 129853,
        "name": "Rocha",
        "state_id": 3216,
        "state_code": "RO",
        "state_name": "Rocha",
        "country_id": 235,
        "country_code": "UY",
        "country_name": "Uruguay",
        "latitude": "-34.48333000",
        "longitude": "-54.33333000",
        "wikiDataId": "Q1017387"
    },
    {
        "id": 129886,
        "name": "Velázquez",
        "state_id": 3216,
        "state_code": "RO",
        "state_name": "Rocha",
        "country_id": 235,
        "country_code": "UY",
        "country_name": "Uruguay",
        "latitude": "-34.03631000",
        "longitude": "-54.28054000",
        "wikiDataId": "Q1020369"
    },
    {
        "id": 129783,
        "name": "Belén",
        "state_id": 3220,
        "state_code": "SA",
        "state_name": "Salto",
        "country_id": 235,
        "country_code": "UY",
        "country_name": "Uruguay",
        "latitude": "-30.78716000",
        "longitude": "-57.77577000",
        "wikiDataId": "Q816336"
    },
    {
        "id": 129857,
        "name": "Salto",
        "state_id": 3220,
        "state_code": "SA",
        "state_name": "Salto",
        "country_id": 235,
        "country_code": "UY",
        "country_name": "Uruguay",
        "latitude": "-31.38333000",
        "longitude": "-57.96667000",
        "wikiDataId": "Q335506"
    },
    {
        "id": 129889,
        "name": "Villa Constitución",
        "state_id": 3220,
        "state_code": "SA",
        "state_name": "Salto",
        "country_id": 235,
        "country_code": "UY",
        "country_name": "Uruguay",
        "latitude": "-31.06913000",
        "longitude": "-57.84946000",
        "wikiDataId": "Q1128223"
    },
    {
        "id": 129797,
        "name": "Delta del Tigre",
        "state_id": 3204,
        "state_code": "SJ",
        "state_name": "San José",
        "country_id": 235,
        "country_code": "UY",
        "country_name": "Uruguay",
        "latitude": "-34.76488000",
        "longitude": "-56.36450000",
        "wikiDataId": "Q1184943"
    },
    {
        "id": 129801,
        "name": "Ecilda Paullier",
        "state_id": 3204,
        "state_code": "SJ",
        "state_name": "San José",
        "country_id": 235,
        "country_code": "UY",
        "country_name": "Uruguay",
        "latitude": "-34.35778000",
        "longitude": "-57.04883000",
        "wikiDataId": "Q1281233"
    },
    {
        "id": 129823,
        "name": "Libertad",
        "state_id": 3204,
        "state_code": "SJ",
        "state_name": "San José",
        "country_id": 235,
        "country_code": "UY",
        "country_name": "Uruguay",
        "latitude": "-34.63459000",
        "longitude": "-56.61739000",
        "wikiDataId": "Q946150"
    },
    {
        "id": 129849,
        "name": "Puntas de Valdéz",
        "state_id": 3204,
        "state_code": "SJ",
        "state_name": "San José",
        "country_id": 235,
        "country_code": "UY",
        "country_name": "Uruguay",
        "latitude": "-34.58550000",
        "longitude": "-56.70097000",
        "wikiDataId": "Q423201"
    },
    {
        "id": 129851,
        "name": "Rafael Perazza",
        "state_id": 3204,
        "state_code": "SJ",
        "state_name": "San José",
        "country_id": 235,
        "country_code": "UY",
        "country_name": "Uruguay",
        "latitude": "-34.52335000",
        "longitude": "-56.79710000",
        "wikiDataId": "Q1891613"
    },
    {
        "id": 129854,
        "name": "Rodríguez",
        "state_id": 3204,
        "state_code": "SJ",
        "state_name": "San José",
        "country_id": 235,
        "country_code": "UY",
        "country_name": "Uruguay",
        "latitude": "-34.38100000",
        "longitude": "-56.53797000",
        "wikiDataId": "Q32453"
    },
    {
        "id": 129864,
        "name": "San José de Mayo",
        "state_id": 3204,
        "state_code": "SJ",
        "state_name": "San José",
        "country_id": 235,
        "country_code": "UY",
        "country_name": "Uruguay",
        "latitude": "-34.33750000",
        "longitude": "-56.71361000",
        "wikiDataId": "Q983435"
    },
    {
        "id": 129787,
        "name": "Cardona",
        "state_id": 3219,
        "state_code": "SO",
        "state_name": "Soriano",
        "country_id": 235,
        "country_code": "UY",
        "country_name": "Uruguay",
        "latitude": "-33.87049000",
        "longitude": "-57.36954000",
        "wikiDataId": "Q247843"
    },
    {
        "id": 129799,
        "name": "Dolores",
        "state_id": 3219,
        "state_code": "SO",
        "state_name": "Soriano",
        "country_id": 235,
        "country_code": "UY",
        "country_name": "Uruguay",
        "latitude": "-33.53009000",
        "longitude": "-58.21701000",
        "wikiDataId": "Q546964"
    },
    {
        "id": 129811,
        "name": "José Enrique Rodó",
        "state_id": 3219,
        "state_code": "SO",
        "state_name": "Soriano",
        "country_id": 235,
        "country_code": "UY",
        "country_name": "Uruguay",
        "latitude": "-33.69618000",
        "longitude": "-57.53153000",
        "wikiDataId": "Q1020396"
    },
    {
        "id": 129828,
        "name": "Mercedes",
        "state_id": 3219,
        "state_code": "SO",
        "state_name": "Soriano",
        "country_id": 235,
        "country_code": "UY",
        "country_name": "Uruguay",
        "latitude": "-33.25240000",
        "longitude": "-58.03047000",
        "wikiDataId": "Q844914"
    },
    {
        "id": 129839,
        "name": "Palmitas",
        "state_id": 3219,
        "state_code": "SO",
        "state_name": "Soriano",
        "country_id": 235,
        "country_code": "UY",
        "country_name": "Uruguay",
        "latitude": "-33.50719000",
        "longitude": "-57.80079000",
        "wikiDataId": "Q489450"
    },
    {
        "id": 129867,
        "name": "Santa Catalina",
        "state_id": 3219,
        "state_code": "SO",
        "state_name": "Soriano",
        "country_id": 235,
        "country_code": "UY",
        "country_name": "Uruguay",
        "latitude": "-33.79100000",
        "longitude": "-57.48824000",
        "wikiDataId": "Q1022310"
    },
    {
        "id": 129891,
        "name": "Villa Soriano",
        "state_id": 3219,
        "state_code": "SO",
        "state_name": "Soriano",
        "country_id": 235,
        "country_code": "UY",
        "country_name": "Uruguay",
        "latitude": "-33.39811000",
        "longitude": "-58.32177000",
        "wikiDataId": "Q32022851"
    },
    {
        "id": 129796,
        "name": "Curtina",
        "state_id": 3221,
        "state_code": "TA",
        "state_name": "Tacuarembó",
        "country_id": 235,
        "country_code": "UY",
        "country_name": "Uruguay",
        "latitude": "-32.15000000",
        "longitude": "-56.11667000",
        "wikiDataId": "Q1020386"
    },
    {
        "id": 129843,
        "name": "Paso de los Toros",
        "state_id": 3221,
        "state_code": "TA",
        "state_name": "Tacuarembó",
        "country_id": 235,
        "country_code": "UY",
        "country_name": "Uruguay",
        "latitude": "-32.81667000",
        "longitude": "-56.51667000",
        "wikiDataId": "Q664156"
    },
    {
        "id": 129877,
        "name": "Tacuarembó",
        "state_id": 3221,
        "state_code": "TA",
        "state_name": "Tacuarembó",
        "country_id": 235,
        "country_code": "UY",
        "country_name": "Uruguay",
        "latitude": "-31.71694000",
        "longitude": "-55.98111000",
        "wikiDataId": "Q833016"
    },
    {
        "id": 129868,
        "name": "Santa Clara de Olimar",
        "state_id": 3214,
        "state_code": "TT",
        "state_name": "Treinta y Tres",
        "country_id": 235,
        "country_code": "UY",
        "country_name": "Uruguay",
        "latitude": "-32.92254000",
        "longitude": "-54.94447000",
        "wikiDataId": "Q1508561"
    },
    {
        "id": 129883,
        "name": "Treinta y Tres",
        "state_id": 3214,
        "state_code": "TT",
        "state_name": "Treinta y Tres",
        "country_id": 235,
        "country_code": "UY",
        "country_name": "Uruguay",
        "latitude": "-33.23333000",
        "longitude": "-54.38333000",
        "wikiDataId": "Q830390"
    },
    {
        "id": 129887,
        "name": "Vergara",
        "state_id": 3214,
        "state_code": "TT",
        "state_name": "Treinta y Tres",
        "country_id": 235,
        "country_code": "UY",
        "country_name": "Uruguay",
        "latitude": "-32.94419000",
        "longitude": "-53.93810000",
        "wikiDataId": "Q2298580"
    },
    {
        "id": 129890,
        "name": "Villa Sara",
        "state_id": 3214,
        "state_code": "TT",
        "state_name": "Treinta y Tres",
        "country_id": 235,
        "country_code": "UY",
        "country_name": "Uruguay",
        "latitude": "-33.25340000",
        "longitude": "-54.41947000",
        "wikiDataId": "Q1022308"
    },
    {
        "id": 129894,
        "name": "Andijon",
        "state_id": 2540,
        "state_code": "AN",
        "state_name": "Andijan Region",
        "country_id": 236,
        "country_code": "UZ",
        "country_name": "Uzbekistan",
        "latitude": "40.78206000",
        "longitude": "72.34424000",
        "wikiDataId": "Q487656"
    },
    {
        "id": 129895,
        "name": "Andijon Tumani",
        "state_id": 2540,
        "state_code": "AN",
        "state_name": "Andijan Region",
        "country_id": 236,
        "country_code": "UZ",
        "country_name": "Uzbekistan",
        "latitude": "40.80000000",
        "longitude": "72.41667000",
        "wikiDataId": "Q2399866"
    },
    {
        "id": 129897,
        "name": "Asaka",
        "state_id": 2540,
        "state_code": "AN",
        "state_name": "Andijan Region",
        "country_id": 236,
        "country_code": "UZ",
        "country_name": "Uzbekistan",
        "latitude": "40.64153000",
        "longitude": "72.23868000",
        "wikiDataId": "Q378393"
    },
    {
        "id": 129898,
        "name": "Asaka Tumani",
        "state_id": 2540,
        "state_code": "AN",
        "state_name": "Andijan Region",
        "country_id": 236,
        "country_code": "UZ",
        "country_name": "Uzbekistan",
        "latitude": "40.66667000",
        "longitude": "72.25000000",
        "wikiDataId": "Q578148"
    },
    {
        "id": 129899,
        "name": "Baliqchi Tumani",
        "state_id": 2540,
        "state_code": "AN",
        "state_name": "Andijan Region",
        "country_id": 236,
        "country_code": "UZ",
        "country_name": "Uzbekistan",
        "latitude": "40.86667000",
        "longitude": "72.00000000",
        "wikiDataId": "Q1646692"
    },
    {
        "id": 129908,
        "name": "Bo‘z Tumani",
        "state_id": 2540,
        "state_code": "AN",
        "state_name": "Andijan Region",
        "country_id": 236,
        "country_code": "UZ",
        "country_name": "Uzbekistan",
        "latitude": "40.66667000",
        "longitude": "71.91667000",
        "wikiDataId": "Q2399915"
    },
    {
        "id": 129910,
        "name": "Buloqboshi Tumani",
        "state_id": 2540,
        "state_code": "AN",
        "state_name": "Andijan Region",
        "country_id": 236,
        "country_code": "UZ",
        "country_name": "Uzbekistan",
        "latitude": "40.61667000",
        "longitude": "72.46667000",
        "wikiDataId": "Q2399900"
    },
    {
        "id": 129937,
        "name": "Izboskan Tumani",
        "state_id": 2540,
        "state_code": "AN",
        "state_name": "Andijan Region",
        "country_id": 236,
        "country_code": "UZ",
        "country_name": "Uzbekistan",
        "latitude": "40.91667000",
        "longitude": "72.25000000",
        "wikiDataId": "Q2399845"
    },
    {
        "id": 129938,
        "name": "Jalolkuduk Tumani",
        "state_id": 2540,
        "state_code": "AN",
        "state_name": "Andijan Region",
        "country_id": 236,
        "country_code": "UZ",
        "country_name": "Uzbekistan",
        "latitude": "40.75000000",
        "longitude": "72.66667000",
        "wikiDataId": "Q609133"
    },
    {
        "id": 129946,
        "name": "Khŭjaobod Tumani",
        "state_id": 2540,
        "state_code": "AN",
        "state_name": "Andijan Region",
        "country_id": 236,
        "country_code": "UZ",
        "country_name": "Uzbekistan",
        "latitude": "40.66667000",
        "longitude": "72.58333000",
        "wikiDataId": "Q2399836"
    },
    {
        "id": 129956,
        "name": "Marhamat",
        "state_id": 2540,
        "state_code": "AN",
        "state_name": "Andijan Region",
        "country_id": 236,
        "country_code": "UZ",
        "country_name": "Uzbekistan",
        "latitude": "40.48048000",
        "longitude": "72.31388000",
        "wikiDataId": "Q3847075"
    },
    {
        "id": 129957,
        "name": "Marhamat Tumani",
        "state_id": 2540,
        "state_code": "AN",
        "state_name": "Andijan Region",
        "country_id": 236,
        "country_code": "UZ",
        "country_name": "Uzbekistan",
        "latitude": "40.50000000",
        "longitude": "72.31667000",
        "wikiDataId": "Q2399255"
    },
    {
        "id": 129971,
        "name": "Oltinkŭl Tumani",
        "state_id": 2540,
        "state_code": "AN",
        "state_name": "Andijan Region",
        "country_id": 236,
        "country_code": "UZ",
        "country_name": "Uzbekistan",
        "latitude": "40.80000000",
        "longitude": "72.16667000",
        "wikiDataId": "Q2631630"
    },
    {
        "id": 129973,
        "name": "Pakhtaobod Tumani",
        "state_id": 2540,
        "state_code": "AN",
        "state_name": "Andijan Region",
        "country_id": 236,
        "country_code": "UZ",
        "country_name": "Uzbekistan",
        "latitude": "40.93333000",
        "longitude": "72.50000000",
        "wikiDataId": "Q1646660"
    },
    {
        "id": 129976,
        "name": "Paxtaobod",
        "state_id": 2540,
        "state_code": "AN",
        "state_name": "Andijan Region",
        "country_id": 236,
        "country_code": "UZ",
        "country_name": "Uzbekistan",
        "latitude": "40.92936000",
        "longitude": "72.49687000",
        "wikiDataId": "Q867159"
    },
    {
        "id": 129987,
        "name": "Qo‘rg‘ontepa",
        "state_id": 2540,
        "state_code": "AN",
        "state_name": "Andijan Region",
        "country_id": 236,
        "country_code": "UZ",
        "country_name": "Uzbekistan",
        "latitude": "40.73192000",
        "longitude": "72.76177000",
        "wikiDataId": "Q609368"
    },
    {
        "id": 129990,
        "name": "Qŭrghontepa Tumani",
        "state_id": 2540,
        "state_code": "AN",
        "state_name": "Andijan Region",
        "country_id": 236,
        "country_code": "UZ",
        "country_name": "Uzbekistan",
        "latitude": "40.75000000",
        "longitude": "72.83333000",
        "wikiDataId": "Q2671584"
    },
    {
        "id": 129996,
        "name": "Shahrikhon Tumani",
        "state_id": 2540,
        "state_code": "AN",
        "state_name": "Andijan Region",
        "country_id": 236,
        "country_code": "UZ",
        "country_name": "Uzbekistan",
        "latitude": "40.71667000",
        "longitude": "72.06667000",
        "wikiDataId": "Q926306"
    },
    {
        "id": 129998,
        "name": "Shahrixon",
        "state_id": 2540,
        "state_code": "AN",
        "state_name": "Andijan Region",
        "country_id": 236,
        "country_code": "UZ",
        "country_name": "Uzbekistan",
        "latitude": "40.71331000",
        "longitude": "72.05706000",
        "wikiDataId": "Q1659154"
    },
    {
        "id": 130012,
        "name": "Ulug‘nor Tumani",
        "state_id": 2540,
        "state_code": "AN",
        "state_name": "Andijan Region",
        "country_id": 236,
        "country_code": "UZ",
        "country_name": "Uzbekistan",
        "latitude": "40.75000000",
        "longitude": "71.70000000",
        "wikiDataId": "Q2399889"
    },
    {
        "id": 130018,
        "name": "Xo‘jaobod",
        "state_id": 2540,
        "state_code": "AN",
        "state_name": "Andijan Region",
        "country_id": 236,
        "country_code": "UZ",
        "country_name": "Uzbekistan",
        "latitude": "40.66886000",
        "longitude": "72.56002000",
        "wikiDataId": "Q2609325"
    },
    {
        "id": 129909,
        "name": "Bukhara",
        "state_id": 2541,
        "state_code": "BU",
        "state_name": "Bukhara Region",
        "country_id": 236,
        "country_code": "UZ",
        "country_name": "Uzbekistan",
        "latitude": "39.77472000",
        "longitude": "64.42861000",
        "wikiDataId": "Q5764"
    },
    {
        "id": 129925,
        "name": "Galaosiyo",
        "state_id": 2541,
        "state_code": "BU",
        "state_name": "Bukhara Region",
        "country_id": 236,
        "country_code": "UZ",
        "country_name": "Uzbekistan",
        "latitude": "39.85778000",
        "longitude": "64.44833000",
        "wikiDataId": "Q650352"
    },
    {
        "id": 129926,
        "name": "Gazli",
        "state_id": 2541,
        "state_code": "BU",
        "state_name": "Bukhara Region",
        "country_id": 236,
        "country_code": "UZ",
        "country_name": "Uzbekistan",
        "latitude": "40.13333000",
        "longitude": "63.45000000",
        "wikiDataId": "Q31916861"
    },
    {
        "id": 129927,
        "name": "Ghijduwon",
        "state_id": 2541,
        "state_code": "BU",
        "state_name": "Bukhara Region",
        "country_id": 236,
        "country_code": "UZ",
        "country_name": "Uzbekistan",
        "latitude": "40.10000000",
        "longitude": "64.68333000",
        "wikiDataId": "Q1027045"
    },
    {
        "id": 129942,
        "name": "Karakul’",
        "state_id": 2541,
        "state_code": "BU",
        "state_name": "Bukhara Region",
        "country_id": 236,
        "country_code": "UZ",
        "country_name": "Uzbekistan",
        "latitude": "39.53333000",
        "longitude": "63.83333000",
        "wikiDataId": "Q31929948"
    },
    {
        "id": 129950,
        "name": "Kogon",
        "state_id": 2541,
        "state_code": "BU",
        "state_name": "Bukhara Region",
        "country_id": 236,
        "country_code": "UZ",
        "country_name": "Uzbekistan",
        "latitude": "39.72278000",
        "longitude": "64.55167000",
        "wikiDataId": "Q1658752"
    },
    {
        "id": 129968,
        "name": "Olot",
        "state_id": 2541,
        "state_code": "BU",
        "state_name": "Bukhara Region",
        "country_id": 236,
        "country_code": "UZ",
        "country_name": "Uzbekistan",
        "latitude": "39.41500000",
        "longitude": "63.80333000",
        "wikiDataId": "Q1993744"
    },
    {
        "id": 129978,
        "name": "Peshku Tumani",
        "state_id": 2541,
        "state_code": "BU",
        "state_name": "Bukhara Region",
        "country_id": 236,
        "country_code": "UZ",
        "country_name": "Uzbekistan",
        "latitude": "40.41667000",
        "longitude": "63.83333000",
        "wikiDataId": "Q2603566"
    },
    {
        "id": 129984,
        "name": "Qorako’l",
        "state_id": 2541,
        "state_code": "BU",
        "state_name": "Bukhara Region",
        "country_id": 236,
        "country_code": "UZ",
        "country_name": "Uzbekistan",
        "latitude": "39.49944000",
        "longitude": "63.85389000",
        "wikiDataId": "Q609840"
    },
    {
        "id": 129985,
        "name": "Qorovulbozor",
        "state_id": 2541,
        "state_code": "BU",
        "state_name": "Bukhara Region",
        "country_id": 236,
        "country_code": "UZ",
        "country_name": "Uzbekistan",
        "latitude": "39.50056000",
        "longitude": "64.79361000",
        "wikiDataId": "Q867044"
    },
    {
        "id": 129993,
        "name": "Romiton",
        "state_id": 2541,
        "state_code": "BU",
        "state_name": "Bukhara Region",
        "country_id": 236,
        "country_code": "UZ",
        "country_name": "Uzbekistan",
        "latitude": "39.92944000",
        "longitude": "64.37944000",
        "wikiDataId": "Q797824"
    },
    {
        "id": 129999,
        "name": "Shofirkon",
        "state_id": 2541,
        "state_code": "BU",
        "state_name": "Bukhara Region",
        "country_id": 236,
        "country_code": "UZ",
        "country_name": "Uzbekistan",
        "latitude": "40.12000000",
        "longitude": "64.50139000",
        "wikiDataId": "Q722941"
    },
    {
        "id": 130016,
        "name": "Wobkent",
        "state_id": 2541,
        "state_code": "BU",
        "state_name": "Bukhara Region",
        "country_id": 236,
        "country_code": "UZ",
        "country_name": "Uzbekistan",
        "latitude": "40.03028000",
        "longitude": "64.51500000",
        "wikiDataId": "Q500641"
    },
    {
        "id": 130017,
        "name": "Wobkent Tumani",
        "state_id": 2541,
        "state_code": "BU",
        "state_name": "Bukhara Region",
        "country_id": 236,
        "country_code": "UZ",
        "country_name": "Uzbekistan",
        "latitude": "40.00000000",
        "longitude": "64.50000000",
        "wikiDataId": "Q2609325"
    },
    {
        "id": 129903,
        "name": "Beshariq",
        "state_id": 2538,
        "state_code": "FA",
        "state_name": "Fergana Region",
        "country_id": 236,
        "country_code": "UZ",
        "country_name": "Uzbekistan",
        "latitude": "40.43583000",
        "longitude": "70.61028000",
        "wikiDataId": "Q891824"
    },
    {
        "id": 129923,
        "name": "Fergana",
        "state_id": 2538,
        "state_code": "FA",
        "state_name": "Fergana Region",
        "country_id": 236,
        "country_code": "UZ",
        "country_name": "Uzbekistan",
        "latitude": "40.38421000",
        "longitude": "71.78432000",
        "wikiDataId": "Q486329"
    },
    {
        "id": 129932,
        "name": "Hamza",
        "state_id": 2538,
        "state_code": "FA",
        "state_name": "Fergana Region",
        "country_id": 236,
        "country_code": "UZ",
        "country_name": "Uzbekistan",
        "latitude": "40.42762000",
        "longitude": "71.50534000",
        "wikiDataId": "Q31919174"
    },
    {
        "id": 129948,
        "name": "Kirguli",
        "state_id": 2538,
        "state_code": "FA",
        "state_name": "Fergana Region",
        "country_id": 236,
        "country_code": "UZ",
        "country_name": "Uzbekistan",
        "latitude": "40.43553000",
        "longitude": "71.76721000",
        "wikiDataId": "Q31932288"
    },
    {
        "id": 129955,
        "name": "Marg‘ilon",
        "state_id": 2538,
        "state_code": "FA",
        "state_name": "Fergana Region",
        "country_id": 236,
        "country_code": "UZ",
        "country_name": "Uzbekistan",
        "latitude": "40.47237000",
        "longitude": "71.72463000",
        "wikiDataId": "Q261076"
    },
    {
        "id": 129969,
        "name": "Oltiariq",
        "state_id": 2538,
        "state_code": "FA",
        "state_name": "Fergana Region",
        "country_id": 236,
        "country_code": "UZ",
        "country_name": "Uzbekistan",
        "latitude": "40.39194000",
        "longitude": "71.47417000",
        "wikiDataId": "Q4063019"
    },
    {
        "id": 129986,
        "name": "Qo‘qon",
        "state_id": 2538,
        "state_code": "FA",
        "state_name": "Fergana Region",
        "country_id": 236,
        "country_code": "UZ",
        "country_name": "Uzbekistan",
        "latitude": "40.52861000",
        "longitude": "70.94250000",
        "wikiDataId": "Q489890"
    },
    {
        "id": 129988,
        "name": "Quva",
        "state_id": 2538,
        "state_code": "FA",
        "state_name": "Fergana Region",
        "country_id": 236,
        "country_code": "UZ",
        "country_name": "Uzbekistan",
        "latitude": "40.52204000",
        "longitude": "72.07292000",
        "wikiDataId": "Q609368"
    },
    {
        "id": 129989,
        "name": "Quvasoy",
        "state_id": 2538,
        "state_code": "FA",
        "state_name": "Fergana Region",
        "country_id": 236,
        "country_code": "UZ",
        "country_name": "Uzbekistan",
        "latitude": "40.29721000",
        "longitude": "71.98026000",
        "wikiDataId": "Q650660"
    },
    {
        "id": 129992,
        "name": "Rishton",
        "state_id": 2538,
        "state_code": "FA",
        "state_name": "Fergana Region",
        "country_id": 236,
        "country_code": "UZ",
        "country_name": "Uzbekistan",
        "latitude": "40.35667000",
        "longitude": "71.28472000",
        "wikiDataId": "Q250276"
    },
    {
        "id": 130000,
        "name": "Shohimardon",
        "state_id": 2538,
        "state_code": "FA",
        "state_name": "Fergana Region",
        "country_id": 236,
        "country_code": "UZ",
        "country_name": "Uzbekistan",
        "latitude": "39.98322000",
        "longitude": "71.80512000",
        "wikiDataId": "Q1005592"
    },
    {
        "id": 130004,
        "name": "So‘x Tumani",
        "state_id": 2538,
        "state_code": "FA",
        "state_name": "Fergana Region",
        "country_id": 236,
        "country_code": "UZ",
        "country_name": "Uzbekistan",
        "latitude": "40.04417000",
        "longitude": "71.09417000",
        "wikiDataId": "Q1027768"
    },
    {
        "id": 130008,
        "name": "Toshloq",
        "state_id": 2538,
        "state_code": "FA",
        "state_name": "Fergana Region",
        "country_id": 236,
        "country_code": "UZ",
        "country_name": "Uzbekistan",
        "latitude": "40.47722000",
        "longitude": "71.76778000",
        "wikiDataId": "Q4453032"
    },
    {
        "id": 130019,
        "name": "Yangi Marg‘ilon",
        "state_id": 2538,
        "state_code": "FA",
        "state_name": "Fergana Region",
        "country_id": 236,
        "country_code": "UZ",
        "country_name": "Uzbekistan",
        "latitude": "40.42722000",
        "longitude": "71.71889000",
        "wikiDataId": "Q31934372"
    },
    {
        "id": 130025,
        "name": "Yaypan",
        "state_id": 2538,
        "state_code": "FA",
        "state_name": "Fergana Region",
        "country_id": 236,
        "country_code": "UZ",
        "country_name": "Uzbekistan",
        "latitude": "40.37583000",
        "longitude": "70.81556000",
        "wikiDataId": "Q3608608"
    },
    {
        "id": 129919,
        "name": "Dashtobod",
        "state_id": 2545,
        "state_code": "JI",
        "state_name": "Jizzakh Region",
        "country_id": 236,
        "country_code": "UZ",
        "country_name": "Uzbekistan",
        "latitude": "40.12694000",
        "longitude": "68.49444000",
        "wikiDataId": "Q3560309"
    },
    {
        "id": 129922,
        "name": "Dŭstlik",
        "state_id": 2545,
        "state_code": "JI",
        "state_name": "Jizzakh Region",
        "country_id": 236,
        "country_code": "UZ",
        "country_name": "Uzbekistan",
        "latitude": "40.52472000",
        "longitude": "68.03583000",
        "wikiDataId": "Q31912870"
    },
    {
        "id": 129924,
        "name": "Gagarin",
        "state_id": 2545,
        "state_code": "JI",
        "state_name": "Jizzakh Region",
        "country_id": 236,
        "country_code": "UZ",
        "country_name": "Uzbekistan",
        "latitude": "40.66194000",
        "longitude": "68.17222000",
        "wikiDataId": "Q31916588"
    },
    {
        "id": 129939,
        "name": "Jizzax",
        "state_id": 2545,
        "state_code": "JI",
        "state_name": "Jizzakh Region",
        "country_id": 236,
        "country_code": "UZ",
        "country_name": "Uzbekistan",
        "latitude": "40.11583000",
        "longitude": "67.84222000",
        "wikiDataId": "Q572380"
    },
    {
        "id": 129975,
        "name": "Paxtakor",
        "state_id": 2545,
        "state_code": "JI",
        "state_name": "Jizzakh Region",
        "country_id": 236,
        "country_code": "UZ",
        "country_name": "Uzbekistan",
        "latitude": "40.31528000",
        "longitude": "67.95444000",
        "wikiDataId": "Q769384"
    },
    {
        "id": 130027,
        "name": "Zomin",
        "state_id": 2545,
        "state_code": "JI",
        "state_name": "Jizzakh Region",
        "country_id": 236,
        "country_code": "UZ",
        "country_name": "Uzbekistan",
        "latitude": "39.96056000",
        "longitude": "68.39583000",
        "wikiDataId": "Q891867"
    },
    {
        "id": 129902,
        "name": "Beruniy",
        "state_id": 2548,
        "state_code": "QR",
        "state_name": "Karakalpakstan",
        "country_id": 236,
        "country_code": "UZ",
        "country_name": "Uzbekistan",
        "latitude": "41.69111000",
        "longitude": "60.75250000",
        "wikiDataId": "Q18242285"
    },
    {
        "id": 129944,
        "name": "Kegeyli Shahar",
        "state_id": 2548,
        "state_code": "QR",
        "state_name": "Karakalpakstan",
        "country_id": 236,
        "country_code": "UZ",
        "country_name": "Uzbekistan",
        "latitude": "42.77667000",
        "longitude": "59.60778000",
        "wikiDataId": "Q3077975"
    },
    {
        "id": 129947,
        "name": "Khŭjayli",
        "state_id": 2548,
        "state_code": "QR",
        "state_name": "Karakalpakstan",
        "country_id": 236,
        "country_code": "UZ",
        "country_name": "Uzbekistan",
        "latitude": "42.40043000",
        "longitude": "59.46005000",
        "wikiDataId": "Q1400173"
    },
    {
        "id": 129954,
        "name": "Manghit",
        "state_id": 2548,
        "state_code": "QR",
        "state_name": "Karakalpakstan",
        "country_id": 236,
        "country_code": "UZ",
        "country_name": "Uzbekistan",
        "latitude": "42.11556000",
        "longitude": "60.05972000",
        "wikiDataId": "Q3544447"
    },
    {
        "id": 129959,
        "name": "Mŭynoq",
        "state_id": 2548,
        "state_code": "QR",
        "state_name": "Karakalpakstan",
        "country_id": 236,
        "country_code": "UZ",
        "country_name": "Uzbekistan",
        "latitude": "43.76833000",
        "longitude": "59.02139000",
        "wikiDataId": "Q750989"
    },
    {
        "id": 129963,
        "name": "Novyy Turtkul’",
        "state_id": 2548,
        "state_code": "QR",
        "state_name": "Karakalpakstan",
        "country_id": 236,
        "country_code": "UZ",
        "country_name": "Uzbekistan",
        "latitude": "41.55000000",
        "longitude": "61.01667000",
        "wikiDataId": "Q31972515"
    },
    {
        "id": 129964,
        "name": "Nukus",
        "state_id": 2548,
        "state_code": "QR",
        "state_name": "Karakalpakstan",
        "country_id": 236,
        "country_code": "UZ",
        "country_name": "Uzbekistan",
        "latitude": "42.45306000",
        "longitude": "59.61028000",
        "wikiDataId": "Q489898"
    },
    {
        "id": 129970,
        "name": "Oltinko‘l",
        "state_id": 2548,
        "state_code": "QR",
        "state_name": "Karakalpakstan",
        "country_id": 236,
        "country_code": "UZ",
        "country_name": "Uzbekistan",
        "latitude": "43.06874000",
        "longitude": "58.90372000",
        "wikiDataId": "Q31980284"
    },
    {
        "id": 129917,
        "name": "Chortoq",
        "state_id": 2537,
        "state_code": "NG",
        "state_name": "Namangan Region",
        "country_id": 236,
        "country_code": "UZ",
        "country_name": "Uzbekistan",
        "latitude": "41.06924000",
        "longitude": "71.82372000",
        "wikiDataId": "Q722997"
    },
    {
        "id": 129918,
        "name": "Chust",
        "state_id": 2537,
        "state_code": "NG",
        "state_name": "Namangan Region",
        "country_id": 236,
        "country_code": "UZ",
        "country_name": "Uzbekistan",
        "latitude": "41.00329000",
        "longitude": "71.23791000",
        "wikiDataId": "Q1090050"
    },
    {
        "id": 129933,
        "name": "Haqqulobod",
        "state_id": 2537,
        "state_code": "NG",
        "state_name": "Namangan Region",
        "country_id": 236,
        "country_code": "UZ",
        "country_name": "Uzbekistan",
        "latitude": "40.91667000",
        "longitude": "72.11667000",
        "wikiDataId": "Q2892693"
    },
    {
        "id": 129952,
        "name": "Kosonsoy",
        "state_id": 2537,
        "state_code": "NG",
        "state_name": "Namangan Region",
        "country_id": 236,
        "country_code": "UZ",
        "country_name": "Uzbekistan",
        "latitude": "41.24944000",
        "longitude": "71.54738000",
        "wikiDataId": "Q609892"
    },
    {
        "id": 129960,
        "name": "Namangan",
        "state_id": 2537,
        "state_code": "NG",
        "state_name": "Namangan Region",
        "country_id": 236,
        "country_code": "UZ",
        "country_name": "Uzbekistan",
        "latitude": "40.99830000",
        "longitude": "71.67257000",
        "wikiDataId": "Q492552"
    },
    {
        "id": 129980,
        "name": "Pop",
        "state_id": 2537,
        "state_code": "NG",
        "state_name": "Namangan Region",
        "country_id": 236,
        "country_code": "UZ",
        "country_name": "Uzbekistan",
        "latitude": "40.87361000",
        "longitude": "71.10889000",
        "wikiDataId": "Q31999206"
    },
    {
        "id": 130009,
        "name": "To‘rqao‘rg‘on",
        "state_id": 2537,
        "state_code": "NG",
        "state_name": "Namangan Region",
        "country_id": 236,
        "country_code": "UZ",
        "country_name": "Uzbekistan",
        "latitude": "40.99984000",
        "longitude": "71.51162000",
        "wikiDataId": "Q32036936"
    },
    {
        "id": 130007,
        "name": "Toshbuloq",
        "state_id": 2537,
        "state_code": "NG",
        "state_name": "Namangan Region",
        "country_id": 236,
        "country_code": "UZ",
        "country_name": "Uzbekistan",
        "latitude": "40.91617000",
        "longitude": "71.57819000",
        "wikiDataId": "Q32035118"
    },
    {
        "id": 130011,
        "name": "Uchqŭrghon Shahri",
        "state_id": 2537,
        "state_code": "NG",
        "state_name": "Namangan Region",
        "country_id": 236,
        "country_code": "UZ",
        "country_name": "Uzbekistan",
        "latitude": "41.11371000",
        "longitude": "72.07915000",
        "wikiDataId": "Q891949"
    },
    {
        "id": 130015,
        "name": "Uychi",
        "state_id": 2537,
        "state_code": "NG",
        "state_name": "Namangan Region",
        "country_id": 236,
        "country_code": "UZ",
        "country_name": "Uzbekistan",
        "latitude": "41.08073000",
        "longitude": "71.92331000",
        "wikiDataId": "Q4470303"
    },
    {
        "id": 130021,
        "name": "Yangiqo‘rg‘on",
        "state_id": 2537,
        "state_code": "NG",
        "state_name": "Namangan Region",
        "country_id": 236,
        "country_code": "UZ",
        "country_name": "Uzbekistan",
        "latitude": "41.19474000",
        "longitude": "71.72385000",
        "wikiDataId": "Q20080698"
    },
    {
        "id": 129961,
        "name": "Navoiy",
        "state_id": 2542,
        "state_code": "NW",
        "state_name": "Navoiy Region",
        "country_id": 236,
        "country_code": "UZ",
        "country_name": "Uzbekistan",
        "latitude": "40.08444000",
        "longitude": "65.37917000",
        "wikiDataId": "Q763015"
    },
    {
        "id": 129965,
        "name": "Nurota",
        "state_id": 2542,
        "state_code": "NW",
        "state_name": "Navoiy Region",
        "country_id": 236,
        "country_code": "UZ",
        "country_name": "Uzbekistan",
        "latitude": "40.56139000",
        "longitude": "65.68861000",
        "wikiDataId": "Q609414"
    },
    {
        "id": 129983,
        "name": "Qiziltepa",
        "state_id": 2542,
        "state_code": "NW",
        "state_name": "Navoiy Region",
        "country_id": 236,
        "country_code": "UZ",
        "country_name": "Uzbekistan",
        "latitude": "40.03306000",
        "longitude": "64.85000000",
        "wikiDataId": "Q722945"
    },
    {
        "id": 130022,
        "name": "Yangirabot",
        "state_id": 2542,
        "state_code": "NW",
        "state_name": "Navoiy Region",
        "country_id": 236,
        "country_code": "UZ",
        "country_name": "Uzbekistan",
        "latitude": "40.02539000",
        "longitude": "65.96095000",
        "wikiDataId": "Q6169765"
    },
    {
        "id": 129904,
        "name": "Beshkent",
        "state_id": 2543,
        "state_code": "QA",
        "state_name": "Qashqadaryo Region",
        "country_id": 236,
        "country_code": "UZ",
        "country_name": "Uzbekistan",
        "latitude": "38.82139000",
        "longitude": "65.65306000",
        "wikiDataId": "Q891824"
    },
    {
        "id": 129916,
        "name": "Chiroqchi",
        "state_id": 2543,
        "state_code": "QA",
        "state_name": "Qashqadaryo Region",
        "country_id": 236,
        "country_code": "UZ",
        "country_name": "Uzbekistan",
        "latitude": "39.03361000",
        "longitude": "66.57222000",
        "wikiDataId": "Q31905537"
    },
    {
        "id": 129931,
        "name": "G‘uzor",
        "state_id": 2543,
        "state_code": "QA",
        "state_name": "Qashqadaryo Region",
        "country_id": 236,
        "country_code": "UZ",
        "country_name": "Uzbekistan",
        "latitude": "38.62083000",
        "longitude": "66.24806000",
        "wikiDataId": "Q2631365"
    },
    {
        "id": 129949,
        "name": "Kitob",
        "state_id": 2543,
        "state_code": "QA",
        "state_name": "Qashqadaryo Region",
        "country_id": 236,
        "country_code": "UZ",
        "country_name": "Uzbekistan",
        "latitude": "39.08425000",
        "longitude": "66.83318000",
        "wikiDataId": "Q722938"
    },
    {
        "id": 129951,
        "name": "Koson",
        "state_id": 2543,
        "state_code": "QA",
        "state_name": "Qashqadaryo Region",
        "country_id": 236,
        "country_code": "UZ",
        "country_name": "Uzbekistan",
        "latitude": "39.03750000",
        "longitude": "65.58500000",
        "wikiDataId": "Q1658752"
    },
    {
        "id": 129958,
        "name": "Muborak",
        "state_id": 2543,
        "state_code": "QA",
        "state_name": "Qashqadaryo Region",
        "country_id": 236,
        "country_code": "UZ",
        "country_name": "Uzbekistan",
        "latitude": "39.25528000",
        "longitude": "65.15278000",
        "wikiDataId": "Q599533"
    },
    {
        "id": 129962,
        "name": "Nishon Tumani",
        "state_id": 2543,
        "state_code": "QA",
        "state_name": "Qashqadaryo Region",
        "country_id": 236,
        "country_code": "UZ",
        "country_name": "Uzbekistan",
        "latitude": "38.69395000",
        "longitude": "65.67512000",
        "wikiDataId": "Q31970870"
    },
    {
        "id": 129981,
        "name": "Qarshi",
        "state_id": 2543,
        "state_code": "QA",
        "state_name": "Qashqadaryo Region",
        "country_id": 236,
        "country_code": "UZ",
        "country_name": "Uzbekistan",
        "latitude": "38.86056000",
        "longitude": "65.78905000",
        "wikiDataId": "Q644008"
    },
    {
        "id": 129997,
        "name": "Shahrisabz",
        "state_id": 2543,
        "state_code": "QA",
        "state_name": "Qashqadaryo Region",
        "country_id": 236,
        "country_code": "UZ",
        "country_name": "Uzbekistan",
        "latitude": "39.05778000",
        "longitude": "66.83417000",
        "wikiDataId": "Q569766"
    },
    {
        "id": 129911,
        "name": "Bulung’ur",
        "state_id": 2544,
        "state_code": "SA",
        "state_name": "Samarqand Region",
        "country_id": 236,
        "country_code": "UZ",
        "country_name": "Uzbekistan",
        "latitude": "39.76472000",
        "longitude": "67.27139000",
        "wikiDataId": "Q31885663"
    },
    {
        "id": 129912,
        "name": "Charxin",
        "state_id": 2544,
        "state_code": "SA",
        "state_name": "Samarqand Region",
        "country_id": 236,
        "country_code": "UZ",
        "country_name": "Uzbekistan",
        "latitude": "39.69667000",
        "longitude": "66.76861000",
        "wikiDataId": "Q31902781"
    },
    {
        "id": 129913,
        "name": "Chelak",
        "state_id": 2544,
        "state_code": "SA",
        "state_name": "Samarqand Region",
        "country_id": 236,
        "country_code": "UZ",
        "country_name": "Uzbekistan",
        "latitude": "39.92028000",
        "longitude": "66.86111000",
        "wikiDataId": "Q31903050"
    },
    {
        "id": 129920,
        "name": "Daxbet",
        "state_id": 2544,
        "state_code": "SA",
        "state_name": "Samarqand Region",
        "country_id": 236,
        "country_code": "UZ",
        "country_name": "Uzbekistan",
        "latitude": "39.76389000",
        "longitude": "66.91250000",
        "wikiDataId": "Q31910030"
    },
    {
        "id": 129935,
        "name": "Ishtixon",
        "state_id": 2544,
        "state_code": "SA",
        "state_name": "Samarqand Region",
        "country_id": 236,
        "country_code": "UZ",
        "country_name": "Uzbekistan",
        "latitude": "39.96639000",
        "longitude": "66.48611000",
        "wikiDataId": "Q797869"
    },
    {
        "id": 129940,
        "name": "Jomboy",
        "state_id": 2544,
        "state_code": "SA",
        "state_name": "Samarqand Region",
        "country_id": 236,
        "country_code": "UZ",
        "country_name": "Uzbekistan",
        "latitude": "39.69889000",
        "longitude": "67.09333000",
        "wikiDataId": "Q31928532"
    },
    {
        "id": 129941,
        "name": "Juma",
        "state_id": 2544,
        "state_code": "SA",
        "state_name": "Samarqand Region",
        "country_id": 236,
        "country_code": "UZ",
        "country_name": "Uzbekistan",
        "latitude": "39.71611000",
        "longitude": "66.66417000",
        "wikiDataId": "Q892020"
    },